,District,No of Positive cases (27-03-2020),Lat,Long
0,Chitoor,1,13.0929032,80.266619
1,East Godavari ,2,17.233496,81.7225986
2,Guntur,1,16.2915189,80.4541588
3,Krishna,1,16.6691525,80.7190024
4,Nellore,1,14.4493717,79.9873763
5,Prakasam,1,15.5,79.5
6,Vijayawada,1,16.5087586,80.6185102
7,Vizag,3,17.7231276,83.3012842
8,MUNGER,2,25.22081165,86.51720367235285
9,PATNA,3,25.6093239,85.1235252
10,Chandigarh,7,30.7194022,76.7646552
11,Raipur,2,21.2379469,81.6336833
12,Rajnandgaon,1,20.9727404,80.69155548263583
13,Central Delhi,3,28.69854835,77.21939141568413
14,East Delhi,5,28.6204767,77.30918071344418
15,North Delhi,4,28.6141793,77.2022662
16,North East Delhi,5,28.72330795,77.26685650778668
17,North West Delhi,5,28.6141793,77.2022662
18,South Delhi,5,28.485169399999997,77.19637972381611
19,South West Delhi,3,28.58644805,76.97915298462692
20,West Delhi,5,28.6479519,77.08556541088615
21,Ahmedabad,14,23.0216238,72.5797068
22,Gandhinagar,7,23.2232877,72.6492267
23,Kutch,1,23.708787049999998,69.82747746941271
24,Rajkot,3,22.3051991,70.8028335
25,Surat,6,21.1864607,72.8081281
26,Vadodara,7,22.2973142,73.1942567
27,Faridabad,1,28.402837,77.3085626
28,Gurugram,24,28.4646148,77.0299194
29,Palwal,1,28.12502575,77.35831300773046
30,Panchkula,1,30.616216450000003,77.04197804321875
31,Panipat,2,29.3912753,76.9771675
32,Sonipat,1,29.0033144,77.0167323
33,Kangra,3,32.166667,76.25
34,Bandipora,5,34.4563234,75.18344578242946
35,Jammu,3,32.7185614,74.8580917
36,Srinagar,3,34.0747444,74.8204443
37,BBMP,1,13.058135,77.5064622757628
38,Bengaluru,9,12.9791198,77.5912997
39,Bengaluru Urban,7,12.94514225,77.55364499971128
40,Chikkaballapura,3,13.4358702,77.7312434
41,Dakshin Kannada,1,12.8827367,75.0309089
42,Dharwad,1,15.4540505,75.0066516
43,Kalburgi,3,17.166667,77.083333
44,Kodagu,1,12.3822808,75.66523533586208
45,Mysore,1,12.3051828,76.6553609
46,Uttara Kannada,2,14.724474149999999,74.64223734496612
47,Alappuzha,2,9.48870055,76.41256410969626
48,Ernakulam,20,10.038394700000001,76.5074145180173
49,Idukki,2,9.8497872,76.9797914
50,Kannur,13,11.8762254,75.3738043
51,Kasargod,45,12.4914722,74.9877613
52,Kottayam,3,9.62857045,76.6455250291479
53,Kozhikode,5,11.2446144,75.7759372
54,Mallapuram,5,15.5127186,79.1714602
55,Palakkad,3,10.7691989,76.6512469
56,Pathanamthitta,12,9.283404399999998,76.96066275907359
57,Thiruvananthapuram,5,8.5058909,76.9570481
58,Thrissur,3,10.5256264,76.2132542
59,Kargil,2,34.42089435,75.66548598121861
60,Leh,11,34.1642029,77.5848133
61,Bhopal,2,23.2530923,77.3962718
62,Gwalior,1,26.2037247,78.1573628
63,Indore,4,22.7203616,75.8681996
64,Jabalpur,6,23.1608938,79.9497702
65,Shivpuri,1,25.37524125,77.82811932629714
66,Ujjain,1,23.174597,75.7851423
67,Ahmednagar,3,19.162772500000003,74.85802430085195
68,Aurangabad,1,19.877263,75.3390241
69,Mumbai,47,18.9387711,72.8353355
70,Mumbai Suburban,12,19.13095765,72.88593095460952
71,Nagpur,4,21.1498134,79.0820556
72,Palghar,1,19.68086385,72.82537342511341
73,Pune,31,18.521428,73.8544541
74,Raigad,1,18.4928092,73.13807095426539
75,Ratnagiri,1,17.282607900000002,73.4569787039826
76,Sangli,9,16.8502534,74.5948885
77,Satara,2,17.63612885,74.29827807601782
78,Thane,7,19.1943294,72.9701779
79,Yavatmal,4,20.15,78.35
80,Imphal West,1,24.757326,93.85847858025147
81,Aizwal (W),1,23.860878800000002,92.98228203442551
82,Khurda,2,20.1617378,85.7052429
83,Mahe,1,11.7021978,75.5364701
84,Amritsar,1,31.6343083,74.8736788
85,Hoshiarpur,3,31.60857425,75.84644246890946
86,Jalandhar,4,31.29201065,75.56805772253911
87,Ludhiana,1,30.9090157,75.851601
88,Nawanshahr,1,31.126888899999997,76.15768480633812
89,SAS Nagar,5,30.6904481,76.7116382
90,SBS Nagar,18,17.4149528,78.5423976
91,Bhilwara,17,25.48877345,74.69961283584024
92,Jaipur,8,26.916194,75.820349
93,Jhunjhunu,5,28.1287995,75.3992581
94,Jodhpur,4,26.2967719,73.0351433
95,Pali,1,25.6040908,73.41560878556902
96,Pratapgarh,2,25.75,81.75
97,sikar,1,27.662826000000003,75.02792628691331
98,Chennai,12,13.0801721,80.2838331
99,Coimbatore,1,11.0018115,76.9628425
100,Erode,3,11.369204400000001,77.67662686841793
101,Kanchipuram,1,12.9647163,79.9839686
102,Madurai,1,9.9261153,78.1140983
103,Salem,5,11.6612012,78.1602498
104,Tirunelveli,1,8.8082342,77.8114843
105,Tirupur,1,11.1671878,77.3472673
106,Vellore,1,12.7948109,79.0006410968549
107,Bhadradri Kothagudem,4,17.71534525,80.57149761778712
108,Hyderabad,27,17.38878595,78.46106473453146
109,Karimnagar,1,18.4346438,79.1322648
111,Mahboobnagar,1,17.7203392,79.6280587
112,Medchal,3,17.6339929,78.4843146
113,Ranga Reddy,7,12.9554461,80.2530374
114,Warangal (U),1,17.9806094,79.5982115
115,Agra,8,27.1752554,78.0098161
116,GB Nagar,14,15.3631664,75.1252514
117,Ghaziabad,3,28.711241,77.4445372
118,Jaunpur,1,25.7955927,82.48834097504385
119,Kanpur,1,26.4609135,80.3217588
120,Lakhimpur Kheri,1,27.985060150000002,80.75384538357649
121,Lucknow,8,26.8381,80.9346001
122,Moradabad,1,28.8638424,78.80577833091104
123,Pilibhit,2,28.495207649999998,80.10754080018077
124,Shamli,1,29.5008816,77.34838258540861
125,Varanasi,1,25.3356491,83.0076292
126,Dehradun,4,30.3255646,78.0436813
127,Pauri Garhwal,1,29.84591115,78.70766746320547
128,Kolkata,6,22.54541245,88.3567751581234
129,North Pargana,2,24.5,87.5
130,South Pargana,1,24.5,87.5
