,District,No of Positive cases (2020-03-29),Lat,Long
0,South Andaman,9,10.7056905,92.48746789633373
1,Chitoor,1,13.0929032,80.266619
2,East Godavari,2,17.233496,81.7225986
3,Guntur,2,16.2915189,80.4541588
4,Krishna,3,16.6691525,80.7190024
5,Nellore,1,14.4493717,79.9873763
6,Prakasam,1,15.5,79.5
7,Vizag,4,17.7231276,83.3012842
8,Munger,3,25.22081165,86.51720367235285
9,Siwan,1,26.1310043,84.39125660595198
10,PATNA,4,25.6093239,85.1235252
11,Nalanda,1,25.1364914,85.44365464855682
12,Chandigarh,8,30.7194022,76.7646552
13,Raipur,3,21.2379469,81.6336833
14,Rajnandgaon,1,20.9727404,80.69155548263583
15,Durg,1,21.19903535,81.3979545573657
16,Bilaspur,1,28.8680526,79.29838501460121
17,Central Delhi,4,28.69854835,77.21939141568413
18,East Delhi,5,28.6204767,77.30918071344418
19,North Delhi,4,28.6141793,77.2022662
20,North East Delhi,5,28.72330795,77.26685650778668
21,North West Delhi,5,28.6141793,77.2022662
22,South Delhi,8,28.485169399999997,77.19637972381611
23,South West Delhi,3,28.58644805,76.97915298462692
24,West Delhi,5,28.6479519,77.08556541088615
25,Ahmedabad,18,23.0216238,72.5797068
26,Gandhinagar,9,23.2232877,72.6492267
27,Kutch,1,23.708787049999998,69.82747746941271
28,Rajkot,8,22.3051991,70.8028335
29,Mehsana,1,23.601262849999998,72.37415155167554
30,Surat,6,21.1864607,72.8081281
31,Vadodara,9,22.2973142,73.1942567
32,Bhavnagar,1,21.7718836,72.1416449
33,Faridabad,2,28.402837,77.3085626
34,Gurugram,24,28.4646148,77.0299194
35,Palwal,1,28.12502575,77.35831300773046
36,Panchkula,1,30.616216450000003,77.04197804321875
37,Panipat,4,29.3912753,76.9771675
38,Sonipat,1,29.0033144,77.0167323
39,Kangra,3,32.166667,76.25
40,Jammu,3,32.7185614,74.8580917
41,Rajauri,3,33.25,74.25
42,Udhampur,3,33.0,75.166667
43,Srinagar,12,34.0747444,74.8204443
44,Bandipora,8,34.4563234,75.18344578242946
45,Budgam,1,34.04796585,74.7441397838328
46,Pulwama,1,33.89829355,74.89634093792017
47,BBMP,26,13.058135,77.5064622757628
48,Bengaluru Urban,17,12.94514225,77.55364499971128
49,Chikkaballapura,6,13.4358702,77.7312434
50,Dakshin Kannada,7,12.8827367,75.0309089
51,Dharwad,1,15.4540505,75.0066516
52,Kalburgi,3,17.166667,77.083333
53,Kodagu,1,12.3822808,75.66523533586208
54,Mysore,3,12.3051828,76.6553609
55,Tumkur,1,13.3400771,77.1006208
56,Udupi,1,13.3419169,74.7473232
57,Uttara Kannada,7,14.724474149999999,74.64223734496612
58,Davangere,3,14.466445700000001,75.9197507909343
59,Alappuzha,2,9.48870055,76.41256410969626
60,Ernakulam,19,10.038394700000001,76.5074145180173
61,Idukki,2,9.8497872,76.9797914
62,Kannur,27,11.8762254,75.3738043
63,Kasargod,78,12.4914722,74.9877613
64,Kottayam,6,9.62857045,76.6455250291479
65,Kozhikode,9,11.2446144,75.7759372
66,Palakkad,4,10.7691989,76.6512469
67,Pathanamthitta,10,9.283404399999998,76.96066275907359
68,Wayanad,1,11.715219000000001,76.12690294658198
69,Thiruvananthapuram,8,8.5058909,76.9570481
70,Mallapuram,8,15.5127186,79.1714602
71,Thrissur,6,10.5256264,76.2132542
72,Kollam,2,8.96699645,76.85828880345855
73,Kargil,2,34.42089435,75.66548598121861
74,Leh,11,34.1642029,77.5848133
75,Bhopal,3,23.2530923,77.3962718
76,Gwalior,1,26.2037247,78.1573628
77,Indore,10,22.7203616,75.8681996
78,Shivpuri,2,25.37524125,77.82811932629714
79,Ujjain,4,23.174597,75.7851423
80,Jabalpur,8,23.1608938,79.9497702
81,Ahmednagar,3,19.162772500000003,74.85802430085195
82,Aurangabad,1,19.877263,75.3390241
83,Mumbai,81,18.9387711,72.8353355
84,Gondia,1,21.455228,80.1962729
85,Nagpur,12,21.1498134,79.0820556
86,Kolhapur,1,16.7028412,74.2405329
87,Palghar,2,19.68086385,72.82537342511341
88,Pune,31,18.521428,73.8544541
89,Raigad,1,18.4928092,73.13807095426539
90,Ratnagiri,1,17.282607900000002,73.4569787039826
91,Sangli,24,16.8502534,74.5948885
92,Satara,2,17.63612885,74.29827807601782
93,Sindhudurg,1,16.135719299999998,73.65220860183584
94,Thane,16,19.1943294,72.9701779
95,Yavatmal,4,20.15,78.35
96,Imphal West,1,24.757326,93.85847858025147
97,Aizwal (W),1,23.860878800000002,92.98228203442551
98,Khurda,3,20.1617378,85.7052429
99,Mahe,1,11.7021978,75.5364701
100,Amritsar,1,31.6343083,74.8736788
101,Hoshiarpur,6,31.60857425,75.84644246890946
102,Jalandhar,5,31.29201065,75.56805772253911
103,Ludhiana,1,30.9090157,75.851601
104,Nawanshahr,1,31.126888899999997,76.15768480633812
105,SAS Nagar,6,30.6904481,76.7116382
106,SBS Nagar,18,17.4149528,78.5423976
107,Bhilwara,22,25.48877345,74.69961283584024
108,Jaipur,8,26.916194,75.820349
109,Jhunjhunu,6,28.1287995,75.3992581
110,Jodhpur,6,26.2967719,73.0351433
111,Pali,1,25.6040908,73.41560878556902
112,Dungarpur,2,23.666667,73.75
113,Ajmer,1,26.4691,74.639
114,Pratapgarh,2,25.75,81.75
115,Sikar,1,27.662826000000003,75.02792628691331
116,Churu,1,28.2061443,74.69190729963461
117,Ariyalur,1,11.076035950000001,79.11745538182738
118,Chennai,18,13.0801721,80.2838331
119,Coimbatore,1,11.0018115,76.9628425
120,Erode,5,11.369204400000001,77.67662686841793
121,Kanchipuram,1,12.9647163,79.9839686
122,Madurai,4,9.9261153,78.1140983
123,Salem,6,11.6612012,78.1602498
124,Thanjavur,1,10.7860267,79.1381497
125,Tirunelveli,1,8.8082342,77.8114843
126,Tirupur,1,11.1671878,77.3472673
127,Trichy,1,10.804973,78.6870296
128,Vellore,2,12.7948109,79.0006410968549
129,Bhadradri Kothagudem,4,17.71534525,80.57149761778712
130,Hyderabad,27,17.38878595,78.46106473453146
131,Karimnagar,1,18.4346438,79.1322648
133,Mahboobnagar,1,17.7203392,79.6280587
134,Medchal,3,17.6339929,78.4843146
135,Ranga Reddy,7,12.9554461,80.2530374
136,Warangal (U),1,17.9806094,79.5982115
137,Agra,10,27.1752554,78.0098161
138,GB Nagar,22,15.3631664,75.1252514
139,Ghaziabad,5,28.711241,77.4445372
140,Jaunpur,1,25.7955927,82.48834097504385
141,Kanpur,1,26.4609135,80.3217588
142,Lakhimpur Kheri,1,27.985060150000002,80.75384538357649
143,Lucknow,8,26.8381,80.9346001
144,Moradabad,1,28.8638424,78.80577833091104
145,Pilibhit,2,28.495207649999998,80.10754080018077
146,Shamli,1,29.5008816,77.34838258540861
147,Bagpat,1,23.4305284,69.2124939
148,Meerut,1,28.916667,77.683333
149,Varanasi,1,25.3356491,83.0076292
150,Dehradun,4,30.3255646,78.0436813
151,Pauri Garhwal,1,29.84591115,78.70766746320547
152,Kolkata,7,22.54541245,88.3567751581234
153,Nadia,5,23.48454125,88.55676307470536
154,North Pargana,2,24.5,87.5
155,South Pargana,1,24.5,87.5
156,East Mirzapur,2,24.9356347,82.64770129811649
